{"group":{"id":6,"name":"Värmland - S21","uuid":"323bcfdd-4f5b-4542-b535-391d16cc4c28","color":"#ff00ff","season_start":"04-01","season_end":"09-30","hasAreaPoints":true,"area_last_sync":null,"areaDailySummary":[],"centerAreaBreakdowns":[],"briefings":[]},"centers":[{"name":"Lekvattnet","lat":60.229599,"lon":12.669804,"radiusKm":8,"pointCount":14,"points":[{"forecast":[]},{"forecast":[]},{"forecast":[]},{"forecast":[]},{"forecast":[]},{"forecast":[]},{"forecast":[]},{"forecast":[]},{"forecast":[]},{"forecast":[]},{"forecast":[]},{"forecast":[]},{"forecast":[]},{"forecast":[]}],"dailyAverages":[]},{"name":"Tyngsjö Östra","lat":60.319658,"lon":13.875297,"radiusKm":8,"pointCount":16,"points":[{"forecast":[]},{"forecast":[]},{"forecast":[]},{"forecast":[]},{"forecast":[]},{"forecast":[]},{"forecast":[]},{"forecast":[]},{"forecast":[]},{"forecast":[]},{"forecast":[]},{"forecast":[]},{"forecast":[]},{"forecast":[]},{"forecast":[]},{"forecast":[]}],"dailyAverages":[]},{"name":"Sundsjön","lat":60.02293,"lon":14.021773,"radiusKm":8,"pointCount":18,"points":[{"forecast":[]},{"forecast":[]},{"forecast":[]},{"forecast":[]},{"forecast":[]},{"forecast":[]},{"forecast":[]},{"forecast":[]},{"forecast":[]},{"forecast":[]},{"forecast":[]},{"forecast":[]},{"forecast":[]},{"forecast":[]},{"forecast":[]},{"forecast":[]},{"forecast":[]},{"forecast":[]}],"dailyAverages":[]},{"name":"LillLungen","lat":59.597986,"lon":14.211329,"radiusKm":8,"pointCount":15,"points":[{"forecast":[]},{"forecast":[]},{"forecast":[]},{"forecast":[]},{"forecast":[]},{"forecast":[]},{"forecast":[]},{"forecast":[]},{"forecast":[]},{"forecast":[]},{"forecast":[]},{"forecast":[]},{"forecast":[]},{"forecast":[]},{"forecast":[]}],"dailyAverages":[]},{"name":"StorÄlgsjön","lat":59.519869,"lon":14.066378,"radiusKm":8,"pointCount":16,"points":[{"forecast":[]},{"forecast":[]},{"forecast":[]},{"forecast":[]},{"forecast":[]},{"forecast":[]},{"forecast":[]},{"forecast":[]},{"forecast":[]},{"forecast":[]},{"forecast":[]},{"forecast":[]},{"forecast":[]},{"forecast":[]},{"forecast":[]},{"forecast":[]}],"dailyAverages":[]},{"name":"Sunne","lat":59.875262,"lon":13.136065,"radiusKm":8,"pointCount":14,"points":[{"forecast":[]},{"forecast":[]},{"forecast":[]},{"forecast":[]},{"forecast":[]},{"forecast":[]},{"forecast":[]},{"forecast":[]},{"forecast":[]},{"forecast":[]},{"forecast":[]},{"forecast":[]},{"forecast":[]},{"forecast":[]}],"dailyAverages":[]},{"name":"Kymmen","lat":60.045925,"lon":12.688099,"radiusKm":8,"pointCount":15,"points":[{"forecast":[]},{"forecast":[]},{"forecast":[]},{"forecast":[]},{"forecast":[]},{"forecast":[]},{"forecast":[]},{"forecast":[]},{"forecast":[]},{"forecast":[]},{"forecast":[]},{"forecast":[]},{"forecast":[]},{"forecast":[]},{"forecast":[]}],"dailyAverages":[]}],"heatmaps":{},"lastFetchedAt":"2026-03-21T18:42:54.989Z"}