{"group":{"id":13,"name":"Västra Götaland O4","uuid":"e5140da0-39f5-46e0-ab82-abf1471d0a31","color":null,"season_start":"04-01","season_end":"09-30","hasAreaPoints":false,"area_last_sync":null,"areaDailySummary":[],"centerAreaBreakdowns":[],"briefings":[]},"centers":[{"name":"Lane Ryr","lat":58.265461,"lon":12.060601,"radiusKm":8,"pointCount":16,"points":[{"forecast":[]},{"forecast":[]},{"forecast":[]},{"forecast":[]},{"forecast":[]},{"forecast":[]},{"forecast":[]},{"forecast":[]},{"forecast":[]},{"forecast":[]},{"forecast":[]},{"forecast":[]},{"forecast":[]},{"forecast":[]},{"forecast":[]},{"forecast":[]}],"dailyAverages":[]},{"name":"Munkedals kapell","lat":58.357381,"lon":11.692492,"radiusKm":8,"pointCount":16,"points":[{"forecast":[]},{"forecast":[]},{"forecast":[]},{"forecast":[]},{"forecast":[]},{"forecast":[]},{"forecast":[]},{"forecast":[]},{"forecast":[]},{"forecast":[]},{"forecast":[]},{"forecast":[]},{"forecast":[]},{"forecast":[]},{"forecast":[]},{"forecast":[]}],"dailyAverages":[]},{"name":"Tanumshede kyrka","lat":58.587793,"lon":11.332758,"radiusKm":8,"pointCount":14,"points":[{"forecast":[]},{"forecast":[]},{"forecast":[]},{"forecast":[]},{"forecast":[]},{"forecast":[]},{"forecast":[]},{"forecast":[]},{"forecast":[]},{"forecast":[]},{"forecast":[]},{"forecast":[]},{"forecast":[]},{"forecast":[]}],"dailyAverages":[]},{"name":"Skee kyrka","lat":58.809695,"lon":11.280019,"radiusKm":8,"pointCount":15,"points":[{"forecast":[]},{"forecast":[]},{"forecast":[]},{"forecast":[]},{"forecast":[]},{"forecast":[]},{"forecast":[]},{"forecast":[]},{"forecast":[]},{"forecast":[]},{"forecast":[]},{"forecast":[]},{"forecast":[]},{"forecast":[]},{"forecast":[]}],"dailyAverages":[]},{"name":"Näverstads kyrka","lat":58.635377,"lon":11.567636,"radiusKm":8,"pointCount":15,"points":[{"forecast":[]},{"forecast":[]},{"forecast":[]},{"forecast":[]},{"forecast":[]},{"forecast":[]},{"forecast":[]},{"forecast":[]},{"forecast":[]},{"forecast":[]},{"forecast":[]},{"forecast":[]},{"forecast":[]},{"forecast":[]},{"forecast":[]}],"dailyAverages":[]},{"name":"Y-kors väg 164-166","lat":58.744765,"lon":11.770954,"radiusKm":8,"pointCount":16,"points":[{"forecast":[]},{"forecast":[]},{"forecast":[]},{"forecast":[]},{"forecast":[]},{"forecast":[]},{"forecast":[]},{"forecast":[]},{"forecast":[]},{"forecast":[]},{"forecast":[]},{"forecast":[]},{"forecast":[]},{"forecast":[]},{"forecast":[]},{"forecast":[]}],"dailyAverages":[]},{"name":"Håbol Kyrka","lat":58.844192,"lon":12.023874,"radiusKm":8,"pointCount":14,"points":[{"forecast":[]},{"forecast":[]},{"forecast":[]},{"forecast":[]},{"forecast":[]},{"forecast":[]},{"forecast":[]},{"forecast":[]},{"forecast":[]},{"forecast":[]},{"forecast":[]},{"forecast":[]},{"forecast":[]},{"forecast":[]}],"dailyAverages":[]},{"name":"Torrskogs kyrka","lat":59.042729,"lon":12.081302,"radiusKm":8,"pointCount":17,"points":[{"forecast":[]},{"forecast":[]},{"forecast":[]},{"forecast":[]},{"forecast":[]},{"forecast":[]},{"forecast":[]},{"forecast":[]},{"forecast":[]},{"forecast":[]},{"forecast":[]},{"forecast":[]},{"forecast":[]},{"forecast":[]},{"forecast":[]},{"forecast":[]},{"forecast":[]}],"dailyAverages":[]},{"name":"Edsleskogs kyrka","lat":58.926711,"lon":12.466859,"radiusKm":8,"pointCount":14,"points":[{"forecast":[]},{"forecast":[]},{"forecast":[]},{"forecast":[]},{"forecast":[]},{"forecast":[]},{"forecast":[]},{"forecast":[]},{"forecast":[]},{"forecast":[]},{"forecast":[]},{"forecast":[]},{"forecast":[]},{"forecast":[]}],"dailyAverages":[]},{"name":"Tisselskogs kyrka","lat":58.780154,"lon":12.39619,"radiusKm":8,"pointCount":17,"points":[{"forecast":[]},{"forecast":[]},{"forecast":[]},{"forecast":[]},{"forecast":[]},{"forecast":[]},{"forecast":[]},{"forecast":[]},{"forecast":[]},{"forecast":[]},{"forecast":[]},{"forecast":[]},{"forecast":[]},{"forecast":[]},{"forecast":[]},{"forecast":[]},{"forecast":[]}],"dailyAverages":[]},{"name":"Lerdal kyrka","lat":58.630219,"lon":11.894398,"radiusKm":8,"pointCount":16,"points":[{"forecast":[]},{"forecast":[]},{"forecast":[]},{"forecast":[]},{"forecast":[]},{"forecast":[]},{"forecast":[]},{"forecast":[]},{"forecast":[]},{"forecast":[]},{"forecast":[]},{"forecast":[]},{"forecast":[]},{"forecast":[]},{"forecast":[]},{"forecast":[]}],"dailyAverages":[]},{"name":"Stigen","lat":58.438196,"lon":12.061953,"radiusKm":8,"pointCount":16,"points":[{"forecast":[]},{"forecast":[]},{"forecast":[]},{"forecast":[]},{"forecast":[]},{"forecast":[]},{"forecast":[]},{"forecast":[]},{"forecast":[]},{"forecast":[]},{"forecast":[]},{"forecast":[]},{"forecast":[]},{"forecast":[]},{"forecast":[]},{"forecast":[]}],"dailyAverages":[]}],"heatmaps":{},"lastFetchedAt":"2026-03-21T18:42:54.989Z"}